{
  "type": "Collection",
  "id": "vessel_density_timeseries",
  "stac_version": "1.1.0",
  "description": "## Ship Density Maps (Sentinel-1)\r\n\r\nThis indicator shows ships detected in the major EU ports by means of Copernicus Sentinel-1 data. It was developed by Alessandro Cimbelli within the upscaling part of the [RACE Challenges 2021](https://eo4society.esa.int/2021/08/01/rapid-action-on-coronavirus-and-eo-race-dashboard-challenge-3/).\r\n\r\nA vessel density map is produced by deriving, for each 1 km2 pixel of the masked image of the selected area, an index given by the ratio:\r\n\r\ndensity_vessels= 1000 * number_vessels / number_observations\r\n\r\nwhere the number of observations corresponds to the intersection of all the satellite footprints of the selected month.\r\n\r\nThe figures below show a comparison with the corresponding map provided by [EMODnet](https://race.esa.int/?x=1040481.31544&y=5968190.74701&z=4.29471&poi=World-E13o&search=World%3A+Vessel+density+%28all%29+%5Bh%2Fsqkm%5D) using the Structural Similarity Index (SSIM).\r\n\r\n\r\n<div style=\"display: flex;\">\r\n  <div class=\"image-caption-object\">\r\n      <img src=\"https://raw.githubusercontent.com/eurodatacube/eodash-assets/main/collections/E1b_vessel_density_timeseries/E1b-img1.png\" alt=\"Image\" style=\"width: 40%;\" />\r\n      <div>Sentinel-1 based indicator</div>\r\n  </div>\r\n  \r\n  <div class=\"image-caption-object\">\r\n      <img src=\"https://raw.githubusercontent.com/eurodatacube/eodash-assets/main/collections/E1b_vessel_density_timeseries/E1b-img2.png\" alt=\"Legend\" style=\"width: 40%;\" />\r\n      <div>EMODnet indicator</div>\r\n  </div>\r\n</div>\r\n\r\n\r\n",
  "links": [
    {
      "rel": "root",
      "href": "../../catalog.json",
      "type": "application/json",
      "title": "RACE"
    },
    {
      "rel": "child",
      "href": "./BE1/collection.json",
      "type": "application/json",
      "title": "Antwerpen",
      "id": "BE1",
      "latlng": "51.475911, 2.983308",
      "country": "BE",
      "name": "Antwerpen"
    },
    {
      "rel": "child",
      "href": "./DE1/collection.json",
      "type": "application/json",
      "title": "Hamburg",
      "id": "DE1",
      "latlng": "54.017878, 8.551366",
      "country": "DE",
      "name": "Hamburg"
    },
    {
      "rel": "child",
      "href": "./DE2/collection.json",
      "type": "application/json",
      "title": "Bremerhaven, Hamburg, Wilhelmshaven",
      "id": "DE2",
      "latlng": "54.0588, 7.63401",
      "country": "DE",
      "name": "Bremerhaven, Hamburg, Wilhelmshaven"
    },
    {
      "rel": "child",
      "href": "./DK2/collection.json",
      "type": "application/json",
      "title": "Skagen",
      "id": "DK2",
      "latlng": "57.707289, 10.680737",
      "country": "DK",
      "name": "Skagen"
    },
    {
      "rel": "child",
      "href": "./EE1/collection.json",
      "type": "application/json",
      "title": "Tallin",
      "id": "EE1",
      "latlng": "59.667699, 24.805019",
      "country": "EE",
      "name": "Tallin"
    },
    {
      "rel": "child",
      "href": "./ES1/collection.json",
      "type": "application/json",
      "title": "Algeciras",
      "id": "ES1",
      "latlng": "35.957077, -5.259355",
      "country": "ES",
      "name": "Algeciras"
    },
    {
      "rel": "child",
      "href": "./ES18/collection.json",
      "type": "application/json",
      "title": "Barcelona",
      "id": "ES18",
      "latlng": "41.312241, 2.23685",
      "country": "ES",
      "name": "Barcelona"
    },
    {
      "rel": "child",
      "href": "./ES3/collection.json",
      "type": "application/json",
      "title": "Bilbao",
      "id": "ES3",
      "latlng": "43.460472, -3.349436",
      "country": "ES",
      "name": "Bilbao"
    },
    {
      "rel": "child",
      "href": "./ES4/collection.json",
      "type": "application/json",
      "title": "Las Palmas",
      "id": "ES4",
      "latlng": "27.967126, -15.115872",
      "country": "ES",
      "name": "Las Palmas"
    },
    {
      "rel": "child",
      "href": "./ES5/collection.json",
      "type": "application/json",
      "title": "Valencia",
      "id": "ES5",
      "latlng": "39.404982, -0.251362",
      "country": "ES",
      "name": "Valencia"
    },
    {
      "rel": "child",
      "href": "./FR2/collection.json",
      "type": "application/json",
      "title": "Le Havre",
      "id": "FR2",
      "latlng": "49.238328, -0.593896",
      "country": "FR",
      "name": "Le Havre"
    },
    {
      "rel": "child",
      "href": "./FR3/collection.json",
      "type": "application/json",
      "title": "Dunkerque",
      "id": "FR3",
      "latlng": "51.216776, 2.205416",
      "country": "FR",
      "name": "Dunkerque"
    },
    {
      "rel": "child",
      "href": "./FR4/collection.json",
      "type": "application/json",
      "title": "Marseille",
      "id": "FR4",
      "latlng": "43.209346, 5.144744",
      "country": "FR",
      "name": "Marseille"
    },
    {
      "rel": "child",
      "href": "./GR7/collection.json",
      "type": "application/json",
      "title": "Peiraias",
      "id": "GR7",
      "latlng": "37.775969, 23.671019",
      "country": "GR",
      "name": "Peiraias"
    },
    {
      "rel": "child",
      "href": "./IE2/collection.json",
      "type": "application/json",
      "title": "Dublin",
      "id": "IE2",
      "latlng": "53.296626, -5.911193",
      "country": "IE",
      "name": "Dublin"
    },
    {
      "rel": "child",
      "href": "./IT16/collection.json",
      "type": "application/json",
      "title": "Gioia Tauro",
      "id": "IT16",
      "latlng": "38.453601, 15.793779",
      "country": "IT",
      "name": "Gioia Tauro"
    },
    {
      "rel": "child",
      "href": "./IT17/collection.json",
      "type": "application/json",
      "title": "La Spezia",
      "id": "IT17",
      "latlng": "43.988387, 9.989117",
      "country": "IT",
      "name": "La Spezia"
    },
    {
      "rel": "child",
      "href": "./IT18/collection.json",
      "type": "application/json",
      "title": "Taranto",
      "id": "IT18",
      "latlng": "40.228814, 17.160124",
      "country": "IT",
      "name": "Taranto"
    },
    {
      "rel": "child",
      "href": "./IT19/collection.json",
      "type": "application/json",
      "title": "Trieste",
      "id": "IT19",
      "latlng": "45.63555, 13.700997",
      "country": "IT",
      "name": "Trieste"
    },
    {
      "rel": "child",
      "href": "./IT3/collection.json",
      "type": "application/json",
      "title": "Genova",
      "id": "IT3",
      "latlng": "44.137695, 8.956082",
      "country": "IT",
      "name": "Genova"
    },
    {
      "rel": "child",
      "href": "./LT1/collection.json",
      "type": "application/json",
      "title": "Klaipeda",
      "id": "LT1",
      "latlng": "55.684278, 21.140029",
      "country": "LT",
      "name": "Klaipeda"
    },
    {
      "rel": "child",
      "href": "./LV1/collection.json",
      "type": "application/json",
      "title": "Riga",
      "id": "LV1",
      "latlng": "57.153293, 23.620893",
      "country": "LV",
      "name": "Riga"
    },
    {
      "rel": "child",
      "href": "./NL3/collection.json",
      "type": "application/json",
      "title": "Rotterdam",
      "id": "NL3",
      "latlng": "52.059558, 3.196759",
      "country": "NL",
      "name": "Rotterdam"
    },
    {
      "rel": "child",
      "href": "./NL4/collection.json",
      "type": "application/json",
      "title": "Amsterdam",
      "id": "NL4",
      "latlng": "52.398692, 4.318951",
      "country": "NL",
      "name": "Amsterdam"
    },
    {
      "rel": "child",
      "href": "./NO3/collection.json",
      "type": "application/json",
      "title": "Bergen",
      "id": "NO3",
      "latlng": "60.332799, 4.983069",
      "country": "NO",
      "name": "Bergen"
    },
    {
      "rel": "child",
      "href": "./NO4/collection.json",
      "type": "application/json",
      "title": "Göteborg",
      "id": "NO4",
      "latlng": "57.722237, 12.010657",
      "country": "NO",
      "name": "Göteborg"
    },
    {
      "rel": "child",
      "href": "./PL1/collection.json",
      "type": "application/json",
      "title": "Gdansk",
      "id": "PL1",
      "latlng": "54.782807, 18.240794",
      "country": "PL",
      "name": "Gdansk"
    },
    {
      "rel": "child",
      "href": "./PT2/collection.json",
      "type": "application/json",
      "title": "Sines",
      "id": "PT2",
      "latlng": "37.886931, -9.015926",
      "country": "PT",
      "name": "Sines"
    },
    {
      "rel": "child",
      "href": "./RO1/collection.json",
      "type": "application/json",
      "title": "Constanta",
      "id": "RO1",
      "latlng": "44.149405, 28.839589",
      "country": "RO",
      "name": "Constanta"
    },
    {
      "rel": "child",
      "href": "./RU1/collection.json",
      "type": "application/json",
      "title": "Kaliningrad",
      "id": "RU1",
      "latlng": "54.729095, 19.823546",
      "country": "RU",
      "name": "Kaliningrad"
    },
    {
      "rel": "child",
      "href": "./TR1/collection.json",
      "type": "application/json",
      "title": "Instanbul",
      "id": "TR1",
      "latlng": "40.722472, 28.542998",
      "country": "TR",
      "name": "Instanbul"
    },
    {
      "rel": "child",
      "href": "./TR2/collection.json",
      "type": "application/json",
      "title": "Aliaga",
      "id": "TR2",
      "latlng": "39.16878, 26.466613",
      "country": "TR",
      "name": "Aliaga"
    },
    {
      "rel": "parent",
      "href": "../collection.json",
      "type": "application/json",
      "title": "Vessel density time series"
    }
  ],
  "sci:citation": "Alessandro Cimbelli, Vessel Density based on Copernicus Sentinel-1, developed for the ESA RACE Challenges March 2021",
  "subtitle": "Vessel Density based on Copernicus Sentinel-1",
  "yAxis": "/",
  "themes": [
    "economy"
  ],
  "tags": [
    "Copernicus",
    "Maritime",
    "Traffic",
    "Open data",
    "Community"
  ],
  "agency": [
    "ESA"
  ],
  "subcode": "E1b",
  "sensor": [
    "C-SAR"
  ],
  "satellite": [
    "Sentinel-1"
  ],
  "locations": true,
  "endpointtype": "GeoDB",
  "title": "Vessel density time series",
  "extent": {
    "spatial": {
      "bbox": [
        [
          null,
          null,
          null,
          null
        ]
      ]
    },
    "temporal": {
      "interval": [
        [
          null,
          null
        ]
      ]
    }
  },
  "license": "other",
  "summaries": {
    "countries": [
      "BE",
      "DE",
      "DK",
      "EE",
      "ES",
      "FR",
      "GR",
      "IE",
      "IT",
      "LT",
      "LV",
      "NL",
      "NO",
      "PL",
      "PT",
      "RO",
      "RU",
      "TR"
    ]
  },
  "assets": {
    "notebook_vessel_density_cimbelli": {
      "href": "https://edc-jupyter.hub.eox.at/user/fd72d739-596f-4e72-a660-0d06045e4e26/lab/tree/Vessel_count_upscale.ipynb",
      "type": "text/html",
      "title": "Jupyter Notebook Euro Data Cube",
      "roles": [
        "metadata"
      ]
    }
  }
}