{
  "type": "Collection",
  "id": "vessel_density_timeseries",
  "stac_version": "1.1.0",
  "description": "## Ship Density Maps (Sentinel-1)\r\n\r\nThis indicator shows ships detected in the major EU ports by means of Copernicus Sentinel-1 data. It was developed by Alessandro Cimbelli within the upscaling part of the [RACE Challenges 2021](https://eo4society.esa.int/2021/08/01/rapid-action-on-coronavirus-and-eo-race-dashboard-challenge-3/).\r\n\r\nA vessel density map is produced by deriving, for each 1 km2 pixel of the masked image of the selected area, an index given by the ratio:\r\n\r\ndensity_vessels= 1000 * number_vessels / number_observations\r\n\r\nwhere the number of observations corresponds to the intersection of all the satellite footprints of the selected month.\r\n\r\nThe figures below show a comparison with the corresponding map provided by [EMODnet](https://race.esa.int/?x=1040481.31544&y=5968190.74701&z=4.29471&poi=World-E13o&search=World%3A+Vessel+density+%28all%29+%5Bh%2Fsqkm%5D) using the Structural Similarity Index (SSIM).\r\n\r\n\r\n<div style=\"display: flex;\">\r\n  <div class=\"image-caption-object\">\r\n      <img src=\"https://raw.githubusercontent.com/eurodatacube/eodash-assets/main/collections/E1b_vessel_density_timeseries/E1b-img1.png\" alt=\"Image\" style=\"width: 40%;\" />\r\n      <div>Sentinel-1 based indicator</div>\r\n  </div>\r\n  \r\n  <div class=\"image-caption-object\">\r\n      <img src=\"https://raw.githubusercontent.com/eurodatacube/eodash-assets/main/collections/E1b_vessel_density_timeseries/E1b-img2.png\" alt=\"Legend\" style=\"width: 40%;\" />\r\n      <div>EMODnet indicator</div>\r\n  </div>\r\n</div>\r\n\r\n\r\n",
  "links": [
    {
      "rel": "root",
      "href": "../../catalog.json",
      "type": "application/json",
      "title": "RACE"
    },
    {
      "rel": "child",
      "href": "./BE1/collection.json",
      "type": "application/json",
      "title": "Antwerpen",
      "id": "BE1",
      "latlng": "51.475911, 2.983308",
      "country": "BE",
      "name": "Antwerpen"
    },
    {
      "rel": "child",
      "href": "./DE1/collection.json",
      "type": "application/json",
      "title": "Hamburg",
      "id": "DE1",
      "latlng": "54.017878, 8.551366",
      "country": "DE",
      "name": "Hamburg"
    },
    {
      "rel": "child",
      "href": "./DE2/collection.json",
      "type": "application/json",
      "title": "Bremerhaven, Hamburg, Wilhelmshaven",
      "id": "DE2",
      "latlng": "54.0588, 7.63401",
      "country": "DE",
      "name": "Bremerhaven, Hamburg, Wilhelmshaven"
    },
    {
      "rel": "child",
      "href": "./DK2/collection.json",
      "type": "application/json",
      "title": "Skagen",
      "id": "DK2",
      "latlng": "57.707289, 10.680737",
      "country": "DK",
      "name": "Skagen"
    },
    {
      "rel": "child",
      "href": "./EE1/collection.json",
      "type": "application/json",
      "title": "Tallin",
      "id": "EE1",
      "latlng": "59.667699, 24.805019",
      "country": "EE",
      "name": "Tallin"
    },
    {
      "rel": "child",
      "href": "./ES1/collection.json",
      "type": "application/json",
      "title": "Algeciras",
      "id": "ES1",
      "latlng": "35.957077, -5.259355",
      "country": "ES",
      "name": "Algeciras"
    },
    {
      "rel": "child",
      "href": "./ES18/collection.json",
      "type": "application/json",
      "title": "Barcelona",
      "id": "ES18",
      "latlng": "41.312241, 2.23685",
      "country": "ES",
      "name": "Barcelona"
    },
    {
      "rel": "child",
      "href": "./ES3/collection.json",
      "type": "application/json",
      "title": "Bilbao",
      "id": "ES3",
      "latlng": "43.460472, -3.349436",
      "country": "ES",
      "name": "Bilbao"
    },
    {
      "rel": "child",
      "href": "./ES4/collection.json",
      "type": "application/json",
      "title": "Las Palmas",
      "id": "ES4",
      "latlng": "27.967126, -15.115872",
      "country": "ES",
      "name": "Las Palmas"
    },
    {
      "rel": "child",
      "href": "./ES5/collection.json",
      "type": "application/json",
      "title": "Valencia",
      "id": "ES5",
      "latlng": "39.404982, -0.251362",
      "country": "ES",
      "name": "Valencia"
    },
    {
      "rel": "child",
      "href": "./FR2/collection.json",
      "type": "application/json",
      "title": "Le Havre",
      "id": "FR2",
      "latlng": "49.238328, -0.593896",
      "country": "FR",
      "name": "Le Havre"
    },
    {
      "rel": "child",
      "href": "./FR3/collection.json",
      "type": "application/json",
      "title": "Dunkerque",
      "id": "FR3",
      "latlng": "51.216776, 2.205416",
      "country": "FR",
      "name": "Dunkerque"
    },
    {
      "rel": "child",
      "href": "./FR4/collection.json",
      "type": "application/json",
      "title": "Marseille",
      "id": "FR4",
      "latlng": "43.209346, 5.144744",
      "country": "FR",
      "name": "Marseille"
    },
    {
      "rel": "child",
      "href": "./GR7/collection.json",
      "type": "application/json",
      "title": "Peiraias",
      "id": "GR7",
      "latlng": "37.775969, 23.671019",
      "country": "GR",
      "name": "Peiraias"
    },
    {
      "rel": "child",
      "href": "./IE2/collection.json",
      "type": "application/json",
      "title": "Dublin",
      "id": "IE2",
      "latlng": "53.296626, -5.911193",
      "country": "IE",
      "name": "Dublin"
    },
    {
      "rel": "child",
      "href": "./IT16/collection.json",
      "type": "application/json",
      "title": "Gioia Tauro",
      "id": "IT16",
      "latlng": "38.453601, 15.793779",
      "country": "IT",
      "name": "Gioia Tauro"
    },
    {
      "rel": "child",
      "href": "./IT17/collection.json",
      "type": "application/json",
      "title": "La Spezia",
      "id": "IT17",
      "latlng": "43.988387, 9.989117",
      "country": "IT",
      "name": "La Spezia"
    },
    {
      "rel": "child",
      "href": "./IT18/collection.json",
      "type": "application/json",
      "title": "Taranto",
      "id": "IT18",
      "latlng": "40.228814, 17.160124",
      "country": "IT",
      "name": "Taranto"
    },
    {
      "rel": "child",
      "href": "./IT19/collection.json",
      "type": "application/json",
      "title": "Trieste",
      "id": "IT19",
      "latlng": "45.63555, 13.700997",
      "country": "IT",
      "name": "Trieste"
    },
    {
      "rel": "child",
      "href": "./IT3/collection.json",
      "type": "application/json",
      "title": "Genova",
      "id": "IT3",
      "latlng": "44.137695, 8.956082",
      "country": "IT",
      "name": "Genova"
    },
    {
      "rel": "child",
      "href": "./LT1/collection.json",
      "type": "application/json",
      "title": "Klaipeda",
      "id": "LT1",
      "latlng": "55.684278, 21.140029",
      "country": "LT",
      "name": "Klaipeda"
    },
    {
      "rel": "child",
      "href": "./LV1/collection.json",
      "type": "application/json",
      "title": "Riga",
      "id": "LV1",
      "latlng": "57.153293, 23.620893",
      "country": "LV",
      "name": "Riga"
    },
    {
      "rel": "child",
      "href": "./NL3/collection.json",
      "type": "application/json",
      "title": "Rotterdam",
      "id": "NL3",
      "latlng": "52.059558, 3.196759",
      "country": "NL",
      "name": "Rotterdam"
    },
    {
      "rel": "child",
      "href": "./NL4/collection.json",
      "type": "application/json",
      "title": "Amsterdam",
      "id": "NL4",
      "latlng": "52.398692, 4.318951",
      "country": "NL",
      "name": "Amsterdam"
    },
    {
      "rel": "child",
      "href": "./NO3/collection.json",
      "type": "application/json",
      "title": "Bergen",
      "id": "NO3",
      "latlng": "60.332799, 4.983069",
      "country": "NO",
      "name": "Bergen"
    },
    {
      "rel": "child",
      "href": "./NO4/collection.json",
      "type": "application/json",
      "title": "Göteborg",
      "id": "NO4",
      "latlng": "57.722237, 12.010657",
      "country": "NO",
      "name": "Göteborg"
    },
    {
      "rel": "child",
      "href": "./PL1/collection.json",
      "type": "application/json",
      "title": "Gdansk",
      "id": "PL1",
      "latlng": "54.782807, 18.240794",
      "country": "PL",
      "name": "Gdansk"
    },
    {
      "rel": "child",
      "href": "./PT2/collection.json",
      "type": "application/json",
      "title": "Sines",
      "id": "PT2",
      "latlng": "37.886931, -9.015926",
      "country": "PT",
      "name": "Sines"
    },
    {
      "rel": "child",
      "href": "./RO1/collection.json",
      "type": "application/json",
      "title": "Constanta",
      "id": "RO1",
      "latlng": "44.149405, 28.839589",
      "country": "RO",
      "name": "Constanta"
    },
    {
      "rel": "child",
      "href": "./RU1/collection.json",
      "type": "application/json",
      "title": "Kaliningrad",
      "id": "RU1",
      "latlng": "54.729095, 19.823546",
      "country": "RU",
      "name": "Kaliningrad"
    },
    {
      "rel": "child",
      "href": "./TR1/collection.json",
      "type": "application/json",
      "title": "Instanbul",
      "id": "TR1",
      "latlng": "40.722472, 28.542998",
      "country": "TR",
      "name": "Instanbul"
    },
    {
      "rel": "child",
      "href": "./TR2/collection.json",
      "type": "application/json",
      "title": "Aliaga",
      "id": "TR2",
      "latlng": "39.16878, 26.466613",
      "country": "TR",
      "name": "Aliaga"
    },
    {
      "rel": "parent",
      "href": "../collection.json",
      "type": "application/json",
      "title": "Vessel density time series"
    }
  ],
  "sci:citation": "Alessandro Cimbelli, Vessel Density based on Copernicus Sentinel-1, developed for the ESA RACE Challenges March 2021",
  "subtitle": "Vessel Density based on Copernicus Sentinel-1",
  "yAxis": "/",
  "themes": [
    "economy"
  ],
  "tags": [
    "Copernicus",
    "Maritime",
    "Traffic",
    "Open data",
    "Community"
  ],
  "agency": [
    "ESA"
  ],
  "subcode": "E1b",
  "sensor": [
    "C-SAR"
  ],
  "satellite": [
    "Sentinel-1"
  ],
  "locations": true,
  "endpointtype": "GeoDB",
  "title": "Vessel density time series",
  "extent": {
    "spatial": {
      "bbox": [
        [
          -15.125872,
          27.957126,
          28.849589,
          60.342799
        ],
        [
          2.9733080000000003,
          51.465911000000006,
          2.993308,
          51.485911
        ],
        [
          8.541366,
          54.007878000000005,
          8.561366,
          54.027878
        ],
        [
          7.62401,
          54.0488,
          7.64401,
          54.068799999999996
        ],
        [
          10.670737,
          57.697289000000005,
          10.690737,
          57.717289
        ],
        [
          24.795019,
          59.657699,
          24.815019000000003,
          59.677699
        ],
        [
          -5.269355,
          35.947077,
          -5.249355,
          35.967076999999996
        ],
        [
          2.22685,
          41.302241,
          2.24685,
          41.322241
        ],
        [
          -3.3594359999999996,
          43.450472000000005,
          -3.339436,
          43.470472
        ],
        [
          -15.125872,
          27.957126,
          -15.105872,
          27.977126000000002
        ],
        [
          -0.261362,
          39.394982,
          -0.24136199999999997,
          39.414981999999995
        ],
        [
          -0.603896,
          49.228328000000005,
          -0.583896,
          49.248328
        ],
        [
          2.1954160000000003,
          51.206776000000005,
          2.215416,
          51.226776
        ],
        [
          5.134744,
          43.199346,
          5.154744,
          43.219345999999994
        ],
        [
          23.661019,
          37.765969000000005,
          23.681019000000003,
          37.785969
        ],
        [
          -5.921193,
          53.286626000000005,
          -5.901193,
          53.306626
        ],
        [
          15.783779000000001,
          38.443601,
          15.803779,
          38.463601
        ],
        [
          9.979117,
          43.978387000000005,
          9.999117,
          43.998387
        ],
        [
          17.150123999999998,
          40.218814,
          17.170124,
          40.238814
        ],
        [
          13.690997,
          45.625550000000004,
          13.710996999999999,
          45.64555
        ],
        [
          8.946082,
          44.127695,
          8.966082,
          44.147695
        ],
        [
          21.130028999999997,
          55.674278,
          21.150029,
          55.694278
        ],
        [
          23.610892999999997,
          57.143293,
          23.630893,
          57.163292999999996
        ],
        [
          3.1867590000000003,
          52.049558000000005,
          3.206759,
          52.069558
        ],
        [
          4.308951,
          52.388692,
          4.328951,
          52.408691999999995
        ],
        [
          4.973069000000001,
          60.322799,
          4.993069,
          60.342799
        ],
        [
          12.000657,
          57.712237,
          12.020657,
          57.732237
        ],
        [
          18.230794,
          54.772807,
          18.250794000000003,
          54.792806999999996
        ],
        [
          -9.025926,
          37.876931,
          -9.005926,
          37.896930999999995
        ],
        [
          28.829589,
          44.139405000000004,
          28.849589,
          44.159405
        ],
        [
          19.813546,
          54.719095,
          19.833546000000002,
          54.739095
        ],
        [
          28.532998,
          40.712472000000005,
          28.552998000000002,
          40.732472
        ],
        [
          26.456612999999997,
          39.15878,
          26.476613,
          39.178779999999996
        ]
      ]
    },
    "temporal": {
      "interval": [
        [
          "2020-01-01T05:26:55Z",
          "2022-12-31T17:49:17Z"
        ]
      ]
    }
  },
  "license": "other",
  "summaries": {
    "countries": [
      "BE",
      "DE",
      "DK",
      "EE",
      "ES",
      "FR",
      "GR",
      "IE",
      "IT",
      "LT",
      "LV",
      "NL",
      "NO",
      "PL",
      "PT",
      "RO",
      "RU",
      "TR"
    ]
  },
  "assets": {
    "notebook_vessel_density_cimbelli": {
      "href": "https://edc-jupyter.hub.eox.at/user/fd72d739-596f-4e72-a660-0d06045e4e26/lab/tree/Vessel_count_upscale.ipynb",
      "type": "text/html",
      "title": "Jupyter Notebook Euro Data Cube",
      "roles": [
        "metadata"
      ]
    }
  }
}