{
  "type": "Collection",
  "id": "vessel_density_timeseries",
  "stac_version": "1.1.0",
  "description": "## Ship Density Maps (Sentinel-1)\r\n\r\nThis indicator shows ships detected in the major EU ports by means of Copernicus Sentinel-1 data. It was developed by Alessandro Cimbelli within the upscaling part of the [RACE Challenges 2021](https://eo4society.esa.int/2021/08/01/rapid-action-on-coronavirus-and-eo-race-dashboard-challenge-3/).\r\n\r\nA vessel density map is produced by deriving, for each 1 km2 pixel of the masked image of the selected area, an index given by the ratio:\r\n\r\ndensity_vessels= 1000 * number_vessels / number_observations\r\n\r\nwhere the number of observations corresponds to the intersection of all the satellite footprints of the selected month.\r\n\r\nThe figures below show a comparison with the corresponding map provided by [EMODnet](https://race.esa.int/?x=1040481.31544&y=5968190.74701&z=4.29471&poi=World-E13o&search=World%3A+Vessel+density+%28all%29+%5Bh%2Fsqkm%5D) using the Structural Similarity Index (SSIM).\r\n\r\n\r\n<div style=\"display: flex;\">\r\n  <div class=\"image-caption-object\">\r\n      <img src=\"https://raw.githubusercontent.com/eurodatacube/eodash-assets/main/collections/E1b_vessel_density_timeseries/E1b-img1.png\" alt=\"Image\" style=\"width: 40%;\" />\r\n      <div>Sentinel-1 based indicator</div>\r\n  </div>\r\n  \r\n  <div class=\"image-caption-object\">\r\n      <img src=\"https://raw.githubusercontent.com/eurodatacube/eodash-assets/main/collections/E1b_vessel_density_timeseries/E1b-img2.png\" alt=\"Legend\" style=\"width: 40%;\" />\r\n      <div>EMODnet indicator</div>\r\n  </div>\r\n</div>\r\n\r\n\r\n",
  "links": [
    {
      "rel": "root",
      "href": "../../catalog.json",
      "type": "application/json",
      "title": "RACE"
    },
    {
      "rel": "item",
      "href": "./vessel_density_timeseries/2020/Antwerpen.json",
      "type": "application/geo+json",
      "id": "BE1",
      "latlng": "51.475911, 2.983308",
      "country": "BE",
      "city": "Antwerpen"
    },
    {
      "rel": "item",
      "href": "./vessel_density_timeseries/2020/Hamburg.json",
      "type": "application/geo+json",
      "id": "DE1",
      "latlng": "54.017878, 8.551366",
      "country": "DE",
      "city": "Hamburg"
    },
    {
      "rel": "item",
      "href": "./vessel_density_timeseries/2020/Bremerhaven Hamburg Wilhelmshaven.json",
      "type": "application/geo+json",
      "id": "DE2",
      "latlng": "54.0588, 7.63401",
      "country": "DE",
      "city": "Bremerhaven, Hamburg, Wilhelmshaven"
    },
    {
      "rel": "item",
      "href": "./vessel_density_timeseries/2020/Skagen.json",
      "type": "application/geo+json",
      "id": "DK2",
      "latlng": "57.707289, 10.680737",
      "country": "DK",
      "city": "Skagen"
    },
    {
      "rel": "item",
      "href": "./vessel_density_timeseries/2020/Tallin.json",
      "type": "application/geo+json",
      "id": "EE1",
      "latlng": "59.667699, 24.805019",
      "country": "EE",
      "city": "Tallin"
    },
    {
      "rel": "item",
      "href": "./vessel_density_timeseries/2020/Algeciras.json",
      "type": "application/geo+json",
      "id": "ES1",
      "latlng": "35.957077, -5.259355",
      "country": "ES",
      "city": "Algeciras"
    },
    {
      "rel": "item",
      "href": "./vessel_density_timeseries/2020/Barcelona.json",
      "type": "application/geo+json",
      "id": "ES18",
      "latlng": "41.312241, 2.23685",
      "country": "ES",
      "city": "Barcelona"
    },
    {
      "rel": "item",
      "href": "./vessel_density_timeseries/2020/Bilbao.json",
      "type": "application/geo+json",
      "id": "ES3",
      "latlng": "43.460472, -3.349436",
      "country": "ES",
      "city": "Bilbao"
    },
    {
      "rel": "item",
      "href": "./vessel_density_timeseries/2020/Las Palmas.json",
      "type": "application/geo+json",
      "id": "ES4",
      "latlng": "27.967126, -15.115872",
      "country": "ES",
      "city": "Las Palmas"
    },
    {
      "rel": "item",
      "href": "./vessel_density_timeseries/2020/Valencia.json",
      "type": "application/geo+json",
      "id": "ES5",
      "latlng": "39.404982, -0.251362",
      "country": "ES",
      "city": "Valencia"
    },
    {
      "rel": "item",
      "href": "./vessel_density_timeseries/2020/Le Havre.json",
      "type": "application/geo+json",
      "id": "FR2",
      "latlng": "49.238328, -0.593896",
      "country": "FR",
      "city": "Le Havre"
    },
    {
      "rel": "item",
      "href": "./vessel_density_timeseries/2020/Dunkerque.json",
      "type": "application/geo+json",
      "id": "FR3",
      "latlng": "51.216776, 2.205416",
      "country": "FR",
      "city": "Dunkerque"
    },
    {
      "rel": "item",
      "href": "./vessel_density_timeseries/2020/Marseille.json",
      "type": "application/geo+json",
      "id": "FR4",
      "latlng": "43.209346, 5.144744",
      "country": "FR",
      "city": "Marseille"
    },
    {
      "rel": "item",
      "href": "./vessel_density_timeseries/2020/Peiraias.json",
      "type": "application/geo+json",
      "id": "GR7",
      "latlng": "37.775969, 23.671019",
      "country": "GR",
      "city": "Peiraias"
    },
    {
      "rel": "item",
      "href": "./vessel_density_timeseries/2020/Dublin.json",
      "type": "application/geo+json",
      "id": "IE2",
      "latlng": "53.296626, -5.911193",
      "country": "IE",
      "city": "Dublin"
    },
    {
      "rel": "item",
      "href": "./vessel_density_timeseries/2020/Gioia Tauro.json",
      "type": "application/geo+json",
      "id": "IT16",
      "latlng": "38.453601, 15.793779",
      "country": "IT",
      "city": "Gioia Tauro"
    },
    {
      "rel": "item",
      "href": "./vessel_density_timeseries/2020/La Spezia.json",
      "type": "application/geo+json",
      "id": "IT17",
      "latlng": "43.988387, 9.989117",
      "country": "IT",
      "city": "La Spezia"
    },
    {
      "rel": "item",
      "href": "./vessel_density_timeseries/2020/Taranto.json",
      "type": "application/geo+json",
      "id": "IT18",
      "latlng": "40.228814, 17.160124",
      "country": "IT",
      "city": "Taranto"
    },
    {
      "rel": "item",
      "href": "./vessel_density_timeseries/2020/Trieste.json",
      "type": "application/geo+json",
      "id": "IT19",
      "latlng": "45.63555, 13.700997",
      "country": "IT",
      "city": "Trieste"
    },
    {
      "rel": "item",
      "href": "./vessel_density_timeseries/2020/Genova.json",
      "type": "application/geo+json",
      "id": "IT3",
      "latlng": "44.137695, 8.956082",
      "country": "IT",
      "city": "Genova"
    },
    {
      "rel": "item",
      "href": "./vessel_density_timeseries/2020/Klaipeda.json",
      "type": "application/geo+json",
      "id": "LT1",
      "latlng": "55.684278, 21.140029",
      "country": "LT",
      "city": "Klaipeda"
    },
    {
      "rel": "item",
      "href": "./vessel_density_timeseries/2020/Riga.json",
      "type": "application/geo+json",
      "id": "LV1",
      "latlng": "57.153293, 23.620893",
      "country": "LV",
      "city": "Riga"
    },
    {
      "rel": "item",
      "href": "./vessel_density_timeseries/2020/Rotterdam.json",
      "type": "application/geo+json",
      "id": "NL3",
      "latlng": "52.059558, 3.196759",
      "country": "NL",
      "city": "Rotterdam"
    },
    {
      "rel": "item",
      "href": "./vessel_density_timeseries/2020/Amsterdam.json",
      "type": "application/geo+json",
      "id": "NL4",
      "latlng": "52.398692, 4.318951",
      "country": "NL",
      "city": "Amsterdam"
    },
    {
      "rel": "item",
      "href": "./vessel_density_timeseries/2020/Bergen.json",
      "type": "application/geo+json",
      "id": "NO3",
      "latlng": "60.332799, 4.983069",
      "country": "NO",
      "city": "Bergen"
    },
    {
      "rel": "item",
      "href": "./vessel_density_timeseries/2020/G\u00f6teborg.json",
      "type": "application/geo+json",
      "id": "NO4",
      "latlng": "57.722237, 12.010657",
      "country": "NO",
      "city": "G\u00f6teborg"
    },
    {
      "rel": "item",
      "href": "./vessel_density_timeseries/2020/Gdansk.json",
      "type": "application/geo+json",
      "id": "PL1",
      "latlng": "54.782807, 18.240794",
      "country": "PL",
      "city": "Gdansk"
    },
    {
      "rel": "item",
      "href": "./vessel_density_timeseries/2020/Sines.json",
      "type": "application/geo+json",
      "id": "PT2",
      "latlng": "37.886931, -9.015926",
      "country": "PT",
      "city": "Sines"
    },
    {
      "rel": "item",
      "href": "./vessel_density_timeseries/2020/Constanta.json",
      "type": "application/geo+json",
      "id": "RO1",
      "latlng": "44.149405, 28.839589",
      "country": "RO",
      "city": "Constanta"
    },
    {
      "rel": "item",
      "href": "./vessel_density_timeseries/2020/Kaliningrad.json",
      "type": "application/geo+json",
      "id": "RU1",
      "latlng": "54.729095, 19.823546",
      "country": "RU",
      "city": "Kaliningrad"
    },
    {
      "rel": "item",
      "href": "./vessel_density_timeseries/2020/Instanbul.json",
      "type": "application/geo+json",
      "id": "TR1",
      "latlng": "40.722472, 28.542998",
      "country": "TR",
      "city": "Instanbul"
    },
    {
      "rel": "item",
      "href": "./vessel_density_timeseries/2020/Aliaga.json",
      "type": "application/geo+json",
      "id": "TR2",
      "latlng": "39.16878, 26.466613",
      "country": "TR",
      "city": "Aliaga"
    },
    {
      "rel": "parent",
      "href": "../collection.json",
      "type": "application/json",
      "title": "Vessel density time series"
    }
  ],
  "sci:citation": "Alessandro Cimbelli, Vessel Density based on Copernicus Sentinel-1, developed for the ESA RACE Challenges March 2021",
  "subtitle": "Vessel Density based on Copernicus Sentinel-1",
  "yAxis": "/",
  "themes": [
    "economy"
  ],
  "tags": [
    "Copernicus",
    "Maritime",
    "Traffic",
    "Open data",
    "Community"
  ],
  "agency": [
    "ESA"
  ],
  "subcode": "E1b",
  "sensor": [
    "C-SAR"
  ],
  "satellite": [
    "Sentinel-1"
  ],
  "geoDBID": "Sentinel_1_Vessel_Density_Europe_Timeseries",
  "endpointtype": "GeoDB",
  "title": "Vessel density time series",
  "extent": {
    "spatial": {
      "bbox": [
        [
          -15.125872,
          27.957126,
          28.849589,
          60.342799
        ]
      ]
    },
    "temporal": {
      "interval": [
        [
          "2020-01-01T05:26:55Z",
          "2022-12-31T17:49:17Z"
        ]
      ]
    }
  },
  "license": "other",
  "summaries": {
    "countries": [
      "BE",
      "DE",
      "DK",
      "EE",
      "ES",
      "FR",
      "GR",
      "IE",
      "IT",
      "LT",
      "LV",
      "NL",
      "NO",
      "PL",
      "PT",
      "RO",
      "RU",
      "TR"
    ]
  },
  "assets": {
    "notebook_vessel_density_cimbelli": {
      "href": "https://edc-jupyter.hub.eox.at/user/fd72d739-596f-4e72-a660-0d06045e4e26/lab/tree/Vessel_count_upscale.ipynb",
      "type": "text/html",
      "title": "Jupyter Notebook Euro Data Cube",
      "roles": [
        "metadata"
      ]
    }
  }
}